[
  {
    "location": {
      "name": "Kyoto",
      "country": "Japan",
      "latitude": 35.0116,
      "longitude": 135.7681
    },
    "url": "https://www.instagram.com/p/C7nM4IqO5Ch"
  },
  {
    "location": {
      "name": "Tokyo",
      "country": "Japan",
      "latitude": 35.6762,
      "longitude": 139.6503
    },
    "url": "https://www.instagram.com/p/C8GJdtaOC83"
  },
  {
    "location": {
      "name": "Melbourne",
      "country": "Australia",
      "latitude": -37.8136,
      "longitude": 144.9631
    },
    "url": "https://www.instagram.com/p/C7SfSxUOiGQ"
  },
  {
    "location": {
      "name": "Queenstown",
      "country": "New Zealand",
      "latitude": -45.0312,
      "longitude": 168.6626
    },
    "url": "https://www.instagram.com/p/C7Jq1ETu1bi"
  },
  {
    "location": {
      "name": "Salvador",
      "country": "Brazil",
      "latitude": -12.9714,
      "longitude": -38.5014
    },
    "url": "https://www.instagram.com/p/C36UvE4ux-V"
  },
  {
    "location": {
      "name": "Maragogi",
      "country": "Brazil",
      "latitude": -9.0122,
      "longitude": -35.2221
    },
    "url": "https://www.instagram.com/p/Csz36D9Ol0T"
  },
  {
    "location": {
      "name": "Florianópolis",
      "country": "Brazil",
      "latitude": -27.5954,
      "longitude": -48.548
    },
    "url": "https://www.instagram.com/p/C0kyqW0uMjt"
  },
  {
    "location": {
      "name": "Rio de Janeiro",
      "country": "Brazil",
      "latitude": -22.9068,
      "longitude": -43.1729
    },
    "url": "https://www.instagram.com/p/C0AiHzGOpaK"
  },
  {
    "location": {
      "name": "São Paulo",
      "country": "Brazil",
      "latitude": -23.5505,
      "longitude": -46.6333
    },
    "url": ""
  },
  {
    "location": {
      "name": "Búzios",
      "country": "Brazil",
      "latitude": -22.7459,
      "longitude": -41.8785
    },
    "url": "https://www.instagram.com/p/Cxql7L2OyDT"
  },
  {
    "location": {
      "name": "Belo Horizonte",
      "country": "Brazil",
      "latitude": -19.92083,
      "longitude": -43.93778
    },
    "url": "https://www.instagram.com/p/C5MyWMMuTG1"
  },
  {
    "location": {
      "name": "Athens",
      "country": "Greece",
      "latitude": 37.9838,
      "longitude": 23.7275
    },
    "url": "https://www.instagram.com/p/Ctm6tiOMnUO"
  },
  {
    "location": {
      "name": "Crete",
      "country": "Greece",
      "latitude": 35.2401,
      "longitude": 24.8093
    },
    "url": "https://www.instagram.com/p/CtW007wtlFt"
  },
  {
    "location": {
      "name": "San Andres",
      "country": "Colombia",
      "latitude": 12.5847,
      "longitude": -81.7006
    },
    "url": "https://www.instagram.com/p/CrofM8vO7_I"
  },
  {
    "location": {
      "name": "Medellin",
      "country": "Colombia",
      "latitude": 6.2442,
      "longitude": -75.5812
    },
    "url": "https://www.instagram.com/p/CrofM8vO7_I"
  },
  {
    "location": {
      "name": "Bogotá",
      "country": "Colombia",
      "latitude": 4.711,
      "longitude": -74.0721
    },
    "url": "https://www.instagram.com/p/Cqby2-IuG0Z"
  },
  {
    "location": {
      "name": "Cali",
      "country": "Colombia",
      "latitude": 3.4516,
      "longitude": -76.5319
    },
    "url": "https://www.instagram.com/p/CrofM8vO7_I"
  },
  {
    "location": {
      "name": "Santiago de Chile",
      "country": "Chile",
      "latitude": -33.4489,
      "longitude": -70.6693
    },
    "url": "https://www.instagram.com/p/CpYUgiMuNqH"
  },
  {
    "location": {
      "name": "Buenos Aires",
      "country": "Argentina",
      "latitude": -34.6037,
      "longitude": -58.3816
    },
    "url": ""
  },
  {
    "location": {
      "name": "Mendoza",
      "country": "Argentina",
      "latitude": -32.8895,
      "longitude": -68.8458
    },
    "url": "https://www.instagram.com/p/CpYUgiMuNqH"
  },
  {
    "location": {
      "name": "New York",
      "country": "USA",
      "latitude": 40.7128,
      "longitude": -74.006
    },
    "url": ""
  },
  {
    "location": {
      "name": "Los Angeles",
      "country": "United States of America",
      "latitude": 34.0522,
      "longitude": -118.2437
    },
    "url": ""
  },
  {
    "location": {
      "name": "Coventry",
      "country": "United Kingdom",
      "latitude": 52.4068,
      "longitude": -1.5197
    },
    "url": "https://www.instagram.com/p/BoG5W-NB-Lp"
  },
  {
    "location": {
      "name": "London",
      "country": "United Kingdom",
      "latitude": 51.5074,
      "longitude": -0.1278
    },
    "url": "https://www.instagram.com/p/B3cA1dDBtcw"
  },
  {
    "location": {
      "name": "Barcelona",
      "country": "Spain",
      "latitude": 41.3851,
      "longitude": 2.1734
    },
    "url": "https://www.instagram.com/p/BrnnVK9BrHa"
  },
  {
    "location": {
      "name": "Berlin",
      "country": "Germany",
      "latitude": 52.52,
      "longitude": 13.405
    },
    "url": "https://www.instagram.com/p/BtSEuBXB0rY"
  },
  {
    "location": {
      "name": "Milan",
      "latitude": 45.4642035,
      "longitude": 9.189982,
      "country": "Italy"
    },
    "url": "https://www.instagram.com/p/Ctm6tiOMnUO"
  },
  {
    "location": {
      "name": "Santos",
      "latitude": -23.953533,
      "longitude": -46.335109,
      "country": "Brazil"
    },
    "url": "https://www.instagram.com/p/C4HPFLYuB7o"
  },
  {
    "location": {
      "name": "Las Vegas",
      "latitude": 36.188110,
      "longitude": -115.176468,
      "country": "United States of America"
    },
    "url": ""
  }
  ,
  {
    "location": {
      "name": "Urubici",
      "latitude": -28.0274,
      "longitude": -49.6125,
      "country": "Brazil"
    },
    "url": "https://www.instagram.com/p/C83NjS8OlLm"
  },
  {
    "location": {
      "name": "Birmingham",
      "latitude": 52.489471,
      "longitude": -1.898575,
      "country": "United Kingdom"
    },
    "url": "https://www.instagram.com/p/BoUxSSVhS2m"
  },
  {
    "location": {
      "name": "Chicago",
      "latitude": 41.881832,
      "longitude": -87.623177,
      "country": "United States of America"
    },
    "url": "https://www.instagram.com/p/C9WLmyGuRtY"
  },
  {
    "location": {
      "name": "Orlando",
      "latitude": 28.538336,
      "longitude": -81.379234,
      "country": "United States of America"
    },
    "url": ""
  },
  {
    "location": {
      "name": "Porto",
      "latitude": 41.14961,
      "longitude": -8.61099,
      "country": "Portugal"
    },
    "url": "https://www.instagram.com/p/C98Y9wXNZ27"
  },
  {
    "location": {
      "name": "2025: Porto Seguro",
      "latitude": -16.4511,
      "longitude": -39.0646,
      "country": "Brazil"
    },
    "url": ""
  },
  {
    "location": {
      "name": "2025: João Pessoa",
      "latitude": -7.11532,
      "longitude": -34.861,
      "country": "Brazil"
    },
    "url": ""
  },
  {
    "location": {
      "name": "Lisbon",
      "latitude": 38.736946,
      "longitude": -9.142685,
      "country": "Portugal"
    },
    "url": "https://www.instagram.com/p/C98Y9wXNZ27"
  },
  {
    "location": {
      "name": "Braga",
      "latitude": 41.5518,
      "longitude": -8.4229,
      "country": "Portugal"
    },
    "url": "https://www.instagram.com/p/C98Y9wXNZ27"
  },
  {
    "location": {
      "name": "Paris",
      "latitude": 48.8575,
      "longitude": 2.349014,
      "country": "France"
    },
    "url": "https://www.instagram.com/p/C-L6MadNHiI"
  },
  {
    "location": {
      "name": "Pipa",
      "latitude": -6.2268,
      "longitude": -35.0450,
      "country": "Brazil"
    },
    "url": "https://www.instagram.com/p/C-gmYMeuKxg"
  },
  {
    "location": {
      "name": "2024: Paraty",
      "latitude": -23.2197,
      "longitude": -44.7167,
      "country": "Brazil"
    },
    "url": ""
  },
  {
    "location": {
      "name": "2025: Bangkok",
      "latitude": 13.7563,
      "longitude": 100.5018,
      "country": "Thailand"
    },
    "url": ""
  },
  {
    "location": {
      "name": "2025: Fernando de Noronha",
      "latitude": -3.84036,
      "longitude": -32.4113,
      "country": "Brazil"
    },
    "url": ""
  },
  {
    "location": {
      "name": "2025: Bali",
      "latitude": -8.409518,
      "longitude": 115.188919,
      "country": "Indonesia"
    },
    "url": ""
  },
  {
    "location": {
      "name": "2025: Seoul",
      "latitude": 37.532600,
      "longitude": 127.024612,
      "country": "South Korea"
    },
    "url": ""
  },
  {
    "location": {
      "name": "2025: Abrolhos",
      "latitude": -18.37741,
      "longitude": -38.68046,
      "country": "Brazil"
    },
    "url": ""
  }
]
